[
  {
    "name": "A & J FARMS",
    "owner": "Mark Bebber",
    "address": "2980 Little River Church Rd, Taylorsville, NC 28681",
    "phone": "828.328.0053",
    "lat": 36.0726,
    "lon": -79.792
  },
  {
    "name": "A.J. FARMS 1-2",
    "owner": "Adam Pilcher",
    "address": "3021 Wyo Road, Yadkinville, NC 27055",
    "phone": "336.892.6735 (Adam) or 336.463.2601 (Lauren Walker)",
    "lat": 36.0726,
    "lon": -79.792
  },
  {
    "name": "AARON CHAMBERS FARM, LLC 1-8",
    "owner": "",
    "address": "1875 Little Hunting Creek Rd / 1625 Mitchell Mill Rd / 1661 Mitchell Mill Rd, N. Wilkesboro, NC 28659",
    "phone": "336.894.6735 OR 336.244.7425 OR 336.954.3995 OR 336.954.0016",
    "lat": 36.0726,
    "lon": -79.792
  },
  {
    "name": "ALAN SPEER (SR)",
    "owner": "",
    "address": "2870 S. Chipley Ford Rd, Statesville, NC 28625",
    "phone": "704.876.2979 OR 704.880.3436",
    "lat": 36.0726,
    "lon": -79.792
  },
  {
    "name": "ALLEN MITCHELL 1-3",
    "owner": "",
    "address": "1912 Crossingham Rd, Elkin, NC 28621",
    "phone": "919.683.6293 OR 919.548.1811",
    "lat": 36.0726,
    "lon": -79.792
  },
  {
    "name": "ANDREW SMITH 1-2",
    "owner": "",
    "address": "2193 Sharpe Mill Rd, Hiddenite, NC 28636",
    "phone": "828.302.4708 OR 828.635.7155",
    "lat": 36.0726,
    "lon": -79.792
  },
  {
    "name": "ARMSTRONG 1-4",
    "owner": "Jesse Armstrong",
    "address": "3463 Tice Rd, Yadkinville, NC 27055",
    "phone": "336.816.7407",
    "lat": 36.0726,
    "lon": -79.792
  },
  {
    "name": "ASHLEY MILLER 1-2",
    "owner": "",
    "address": "318 Red Chimney Road, Elkin, NC 28621",
    "phone": "336.466.8010",
    "lat": 36.0726,
    "lon": -79.792
  },
  {
    "name": "BAC FARM LLC 1-2",
    "owner": "",
    "address": "1722 Castlevens Rd, Yadkinville, NC 27055",
    "phone": "704.902.1407",
    "lat": 36.0726,
    "lon": -79.792
  },
  {
    "name": "BARNHARDT FARM 1-8 (D.B.A.)",
    "owner": "James Adam Barnhardt",
    "address": "174 Barnhardt Ln, Advance, NC 27006",
    "phone": "336.399.9804 or 336.209.8903 (Emily)",
    "lat": 36.0726,
    "lon": -79.792
  },
  {
    "name": "BARRY E. JOHNSON #3",
    "owner": "",
    "address": "3515 Silk Hope Lindley Mill Rd, Snow Camp, NC 27349",
    "phone": "919.663.3652",
    "lat": 36.0726,
    "lon": -79.792
  },
  {
    "name": "BEAVER CREEK FARMS 1-2",
    "owner": "",
    "address": "504 St. Clair Rd, Taylorsville, NC 28681",
    "phone": "828.446.1598",
    "lat": 36.0726,
    "lon": -79.792
  },
  {
    "name": "BENTON FAMILY FARM 1-4",
    "owner": "Wyatt Benton & David Benton",
    "address": "2920 Ralph Rd, Boonville, NC 27011",
    "phone": "336.244.5762 (David)",
    "lat": 36.0726,
    "lon": -79.792
  },
  {
    "name": "BILLY BENTON FARM, LLC #1-8",
    "owner": "",
    "address": "250 Gunter Lane, Mocksville, NC 27028",
    "phone": "336.682.5776 or 336.463.2950 or 336.463.2387",
    "lat": 36.0726,
    "lon": -79.792
  },
  {
    "name": "BILLY FOX 1-2",
    "owner": "",
    "address": "8289 VASHTI ROAD, Hiddenite, NC 28636",
    "phone": "828.612.2872",
    "lat": 36.0726,
    "lon": -79.792
  },
  {
    "name": "BK FARMS 1-4",
    "owner": "Brandon Seal",
    "address": "158 John Wright Ln, Hiddenite, NC 28636",
    "phone": "366.352.9378 (H) or 336.366.7425 (C)",
    "lat": 36.0726,
    "lon": -79.792
  },
  {
    "name": "BOBBY CHEEK 1-2",
    "owner": "",
    "address": "1524 Ireland Rd, Yadkinville, NC 27055",
    "phone": "336.244.5937",
    "lat": 36.0726,
    "lon": -79.792
  },
  {
    "name": "BOWMAN'S ROOST 1-4",
    "owner": "",
    "address": "501 B and South Lane, Hickory, NC 28601",
    "phone": "828.850.5102",
    "lat": 36.0726,
    "lon": -79.792
  },
  {
    "name": "BRANDON FARMS, LLC. 1-12",
    "owner": "Rex Brandon",
    "address": "3009 Reece Road, Yadkinville, NC 27055 / 1045 Tryce Brandon Dr, Boonville, NC 27011",
    "phone": "336.466.0840 or 336.787.7873 or 336.367.9001",
    "lat": 36.0726,
    "lon": -79.792
  },
  {
    "name": "BRIAN PENLEY 1-8",
    "owner": "",
    "address": "218 Glenn Drum Farm Rd / 338 Glenn Drum Farm Rd, Taylorsville, NC 28681",
    "phone": "828.612.5300 OR 828.632.7199",
    "lat": 36.0726,
    "lon": -79.792
  },
  {
    "name": "BRIAN SLOAN 1-2",
    "owner": "",
    "address": "361 Bees Rd, Taylorsville, NC 28625",
    "phone": "704.876.0455 OR 704.880.2561",
    "lat": 36.0726,
    "lon": -79.792
  },
  {
    "name": "BRYAN CROUSE 1-4",
    "owner": "",
    "address": "191 Chapman Mill Road, Statesville, NC 28625",
    "phone": "828.234.4040 or 828.632-1582",
    "lat": 36.0726,
    "lon": -79.792
  },
  {
    "name": "BUCK BRANCH FARM 1-2 (D.B.A.)",
    "owner": "Donna H. Goodin",
    "address": "169 Goodin Farm Lane, Statesville, NC 28625",
    "phone": "704.682.1607 or 704.876.6053 or 704.881.3683 (Tim)",
    "lat": 36.0726,
    "lon": -79.792
  },
  {
    "name": "C & B FARMS 1-4",
    "owner": "Cody Cheek & Brittany Beal",
    "address": "5161 Lewis Brown Rd, Bennett, NC 27208",
    "phone": "336.963.9031 (Cody) or 336.963.1525 (Brittany)",
    "lat": 36.0726,
    "lon": -79.792
  },
  {
    "name": "CALEB GILREATH 1-4",
    "owner": "",
    "address": "901 Judi Smith Rd, Hiddenite, NC 28636",
    "phone": "828.502.9490",
    "lat": 36.0726,
    "lon": -79.792
  },
  {
    "name": "CAPPS FARM 1-3 (D.B.A.)",
    "owner": "Joseph Capps",
    "address": "2657 Manco Dairy Rd, Franklinville, NC 27248",
    "phone": "336.736.9861 OR 336.736.6424",
    "lat": 36.0726,
    "lon": -79.792
  },
  {
    "name": "CARL BENTLEY",
    "owner": "",
    "address": "579 Kerley School Lane, Taylorsville, NC 28681",
    "phone": "828.464.8254 or 828.632.1890",
    "lat": 36.0726,
    "lon": -79.792
  },
  {
    "name": "CATHY CHATHAM 1-2",
    "owner": "",
    "address": "201 Old Jennings Rd, Hiddenite, NC 28636",
    "phone": "828.632.9426 OR 828.446.7565",
    "lat": 36.0726,
    "lon": -79.792
  },
  {
    "name": "CHAD DAVIS FARMS, LLC 1-8",
    "owner": "",
    "address": "201 Allen Road, Lexington, NC 27295",
    "phone": "336.479.2008",
    "lat": 36.0726,
    "lon": -79.792
  },
  {
    "name": "CHARLES CARTER 1-3",
    "owner": "",
    "address": "378 Mills Garden Rd, Statesville, NC 28625",
    "phone": "704.873.6020 OR 704.881.0347",
    "lat": 36.0726,
    "lon": -79.792
  },
  {
    "name": "CHEEK FAMILY FARMS 1-16 (D.B.A.)",
    "owner": "Shawn Cheek",
    "address": "5341 Rena Road / 5412 Rena Road / 6100 Rena Road, Hamptonville, NC 27020",
    "phone": "336.468.2266 OR 336.251.4148 OR 336.679.9142",
    "lat": 36.0726,
    "lon": -79.792
  },
  {
    "name": "CHINQUAPIN FARMS 1-4 (D.B.A.)",
    "owner": "Courtney Wells",
    "address": "821 Childress Home Road, Mocksville, NC 27028",
    "phone": "336.463.4289 OR 336.816.5201",
    "lat": 36.0726,
    "lon": -79.792
  },
  {
    "name": "CLARK FAMILY FARMS LLC 1-4",
    "owner": "Ryan & Jamie F. Clark",
    "address": "5246 NC-772, Madison, NC 27025",
    "phone": "336.932.2339",
    "lat": 36.0726,
    "lon": -79.792
  },
  {
    "name": "COX FAMILY FARM 1-2",
    "owner": "Derrick W. Cox",
    "address": "1170 Pleasant Ridge Rd, Ramseur, NC 27316",
    "phone": "336.963.4507",
    "lat": 36.0726,
    "lon": -79.792
  },
  {
    "name": "CRIPPLE CREEK FARM 1-8",
    "owner": "Brandon Lee Stafford",
    "address": "85 Jenkins Loop, Taylorsville, NC 28681",
    "phone": "828.217.8389",
    "lat": 36.0726,
    "lon": -79.792
  },
  {
    "name": "D & S FARM 1-3",
    "owner": "Deborah P. Kiser",
    "address": "1961 Quakenbush Road, Snow Camp, NC 27349",
    "phone": "336.269.0091",
    "lat": 36.0726,
    "lon": -79.792
  },
  {
    "name": "DALE CASSTEVENS 1-2",
    "owner": "",
    "address": "2909 Angus Rd, Boonville, NC 27011",
    "phone": "336.468.7041",
    "lat": 36.0726,
    "lon": -79.792
  },
  {
    "name": "DANIEL WILLIAM CHAPMAN 1-2",
    "owner": "",
    "address": "3181 Cheatham Ford Rd, Taylorsville, NC 28681",
    "phone": "828.638.7228 or 828.312.2525",
    "lat": 36.0726,
    "lon": -79.792
  },
  {
    "name": "DAVIS CHICKEN FARM INC. 1-4",
    "owner": "Eric Davis",
    "address": "160 Small Rd, Randleman, NC 27317",
    "phone": "336-587-5822",
    "lat": 36.0726,
    "lon": -79.792
  },
  {
    "name": "DERRICK SHORE 1-2 (SR)",
    "owner": "",
    "address": "168 Chambers Place, N. Wilkesboro, NC 28659",
    "phone": "336.984.4347 OR 336.984.1172",
    "lat": 36.0726,
    "lon": -79.792
  },
  {
    "name": "DONALD & CHERIE MILLSAPS FARM, INC. 1-7",
    "owner": "",
    "address": "3800 Cheatham Ford Rd, Hiddenite, NC 28636",
    "phone": "828-632-5308 or 828-312-4738 or 828-471-5061",
    "lat": 36.0726,
    "lon": -79.792
  },
  {
    "name": "DOROTHY KERR",
    "owner": "",
    "address": "139 Kerr Farm Loop, Stony Point, NC 28678",
    "phone": "704.585.2131 OR 704.437.1411",
    "lat": 36.0726,
    "lon": -79.792
  },
  {
    "name": "DUSTIN QUEEN 1-4",
    "owner": "",
    "address": "191 Chapman Mill Rd, Taylorsville, NC 28681",
    "phone": "828.234.3834 OR 828.635.6386 or 828.302.5150 (Jennifer)",
    "lat": 36.0726,
    "lon": -79.792
  },
  {
    "name": "DWAYNE SOMEES 1-2",
    "owner": "",
    "address": "4147 Somers Rd, Yadkinville, NC 27055",
    "phone": "336.468.0330 OR 336.468.2141 OR 336.468.4116",
    "lat": 36.0726,
    "lon": -79.792
  },
  {
    "name": "ELIZABETH CHEEK 1-2",
    "owner": "",
    "address": "1620 Cheek Rd, Hamptonville, NC 27020",
    "phone": "336.466.9147 OR 336.426.7700",
    "lat": 36.0726,
    "lon": -79.792
  },
  {
    "name": "FAMILY MADE FARMS 1-4",
    "owner": "Marc N. Clapp & Matthew L. Clapp",
    "address": "3361 Backcreek Church Rd, Seagrove, NC 27341",
    "phone": "336.302.3826 (Matt) or 336.963.5124 (Marc)",
    "lat": 36.0726,
    "lon": -79.792
  },
  {
    "name": "FERGUSON FARMS 1-8 (D.B.A.)",
    "owner": "Eric T. Ferguson",
    "address": "925 Glass Rd, Taylorsville, NC 28681",
    "phone": "828.312.8139 OR 828.632.1394",
    "lat": 36.0726,
    "lon": -79.792
  },
  {
    "name": "FRIDAY FARM & POULTRY, LLC 1-2",
    "owner": "Burke Friday",
    "address": "331 Friday-Cockrell Ln, Taylorsville, NC 28681",
    "phone": "828.244.9313 OR 828.632.4171 OR 828.234.8882",
    "lat": 36.0726,
    "lon": -79.792
  },
  {
    "name": "GARY CHAPMAN 1-2",
    "owner": "",
    "address": "634 Kirby Lackey Road, Taylorsville, NC 28681",
    "phone": "828.312.6076 OR 828.632.7204 OR 828.632.5129",
    "lat": 36.0726,
    "lon": -79.792
  },
  {
    "name": "GILREATH FARMS LLC 1-8",
    "owner": "Josh Gilreath",
    "address": "609 Berea Quincy Church Rd, Hiddenite, NC 28636",
    "phone": "828.320.5495",
    "lat": 36.0726,
    "lon": -79.792
  },
  {
    "name": "GREAT VALLEY FARM 1-2",
    "owner": "Johnny Smith",
    "address": "318 Arthur Jenkins Ln, Taylorsville, NC 28681",
    "phone": "828.244.1414",
    "lat": 36.0726,
    "lon": -79.792
  },
  {
    "name": "GRUBB FARMS, L.L.C. 1-6",
    "owner": "Brady Grubb",
    "address": "4395 NC-801 South, Advance, NC 27006",
    "phone": "336.345.4307 (Brady) or 336.314.2425 (Olivia)",
    "lat": 36.0726,
    "lon": -79.792
  },
  {
    "name": "Green Valley Poultry",
    "lat": 38.6123,
    "lon": -75.5456
  },
  {
    "name": "HEDRICK FARM, L.L.C. 1-2",
    "owner": "Gene Hedrick",
    "address": "389 Eufola Rd, Statesville, NC 28677",
    "phone": "704.878.0053 or 704.878.0053 (Kari)",
    "lat": 36.0726,
    "lon": -79.792
  },
  {
    "name": "HICKS FARM 1-4 (D.B.A.)",
    "owner": "Wesley Hicks",
    "address": "547 Holly Grove Ch. Rd, Staley, NC 27355",
    "phone": "336.736.7245",
    "lat": 36.0726,
    "lon": -79.792
  },
  {
    "name": "HILLSIDE FARM 1-4",
    "owner": "Leah Hubbard Martin",
    "address": "204 Sills Deal Rd, Taylorsville, NC 28681",
    "phone": "828.244.3345",
    "lat": 36.0726,
    "lon": -79.792
  },
  {
    "name": "HOWARD SLOAN 1-4",
    "owner": "",
    "address": "573 N. Chipley Ford Rd / 449 Bees Road, Statesville/Hiddenite, NC",
    "phone": "704.876.3329 OR 704.880.7019",
    "lat": 36.0726,
    "lon": -79.792
  },
  {
    "name": "Houser Farms",
    "lat": 35.712,
    "lon": -81.18
  },
  {
    "name": "I AND K FARM, LLC 1-4",
    "owner": "David Lee Johnson",
    "address": "3640 S. River Church Road, Woodleaf, NC 27054",
    "phone": "704.680.4282",
    "lat": 36.0726,
    "lon": -79.792
  },
  {
    "name": "JAC-DNI ENTERPRISES, LLC #1-2",
    "owner": "Randa McCurdy",
    "address": "3018 Old Vashti Road, Taylorsville, NC 28681",
    "phone": "828.632.6725 OR 828.635.3919",
    "lat": 36.0726,
    "lon": -79.792
  },
  {
    "name": "JACKSON WALKER 1-2",
    "owner": "",
    "address": "7550 Vashti Rd, Taylorsville, NC 28681",
    "phone": "828.514.2472",
    "lat": 36.0726,
    "lon": -79.792
  },
  {
    "name": "JAKE POULTRY FARMS 1-12 (D.B.A.)",
    "owner": "Jacob A. Shugart",
    "address": "1999 Hanes Rd / 1717 Shugart Mill Rd / 1715 Shugart Mill Rd, Yadkinville, NC 27055",
    "phone": "336.468.1273 OR 336.468.1433",
    "lat": 36.0726,
    "lon": -79.792
  },
  {
    "name": "JAMES SHAVER 3-4",
    "owner": "",
    "address": "1632 Tabor Rd, Olin, NC 28660",
    "phone": "704.402.9340 OR 704.876.4329",
    "lat": 36.0726,
    "lon": -79.792
  },
  {
    "name": "JAMES W. MAYES 1-4",
    "owner": "",
    "address": "323 Mills Garden Road, Statesville, NC 28625",
    "phone": "704.902.8295",
    "lat": 36.0726,
    "lon": -79.792
  },
  {
    "name": "JARROD HAMMER 1 & 3",
    "owner": "",
    "address": "121 Jessie Mayes Ln, Taylorsville, NC 28681",
    "phone": "704.437.0630 or 828.635.6803",
    "lat": 36.0726,
    "lon": -79.792
  },
  {
    "name": "JARRON HAMMER 5-6",
    "owner": "",
    "address": "780 Henry Rd, Taylorsville, NC 28681",
    "phone": "704.437.0630 or 828.635.6803",
    "lat": 36.0726,
    "lon": -79.792
  },
  {
    "name": "JASON PAYNE 1-2",
    "owner": "",
    "address": "2245 Old Landfill Road, Taylorsville, NC 28681",
    "phone": "No number listed",
    "lat": 36.0726,
    "lon": -79.792
  },
  {
    "name": "JAY DAVIS 1-2",
    "owner": "",
    "address": "1019 Jay Davis Rd, Taylorsville, NC 28681",
    "phone": "704.682.0961 OR 828.612.2353",
    "lat": 36.0726,
    "lon": -79.792
  },
  {
    "name": "JEFF CLARK 1-4",
    "owner": "",
    "address": "786 Bob Clark Road, Snow Camp, NC 27349",
    "phone": "919.663.3485",
    "lat": 36.0726,
    "lon": -79.792
  },
  {
    "name": "JERRY DANIEL WICKER 1-2",
    "owner": "",
    "address": "2876 Old Liberty Rd, Randleman, NC 27317",
    "phone": "336.302.5345 or 336.672.5966",
    "lat": 36.0726,
    "lon": -79.792
  },
  {
    "name": "JESSE HOUSER 1-2",
    "owner": "",
    "address": "9210 Cheatham Ford Rd, Hiddenite, NC 28636",
    "phone": "828.310.1246",
    "lat": 36.0726,
    "lon": -79.792
  },
  {
    "name": "JETT FARM 1-3",
    "owner": "Cory Jones",
    "address": "1735 Roberts Chapel Church Rd, Goldston, NC 27252",
    "phone": "919.214.1114",
    "lat": 36.0726,
    "lon": -79.792
  },
  {
    "name": "JIM HOLDEN 1-2",
    "owner": "",
    "address": "2052 Old Hwy 601, Mount Airy, NC 27030",
    "phone": "336.366.5919 OR 336.367.5919",
    "lat": 36.0726,
    "lon": -79.792
  },
  {
    "name": "JIMMY MITCHELL 1-2",
    "owner": "",
    "address": "4167 Church Rd, Taylorsville, NC 28681",
    "phone": "828.381.1764 OR 828.632.8655",
    "lat": 36.0726,
    "lon": -79.792
  },
  {
    "name": "JIN FARMS 1-2 (D.B.A.)",
    "owner": "Johnny Welborn",
    "address": "3201 Jin Farm Rd, Hamptonville, NC 27020",
    "phone": "704.876.4384",
    "lat": 36.0726,
    "lon": -79.792
  },
  {
    "name": "JUSTIN CHILDRESS 1-2",
    "owner": "",
    "address": "899 Childress Rd, Hiddenite, NC 28636",
    "phone": "336.466.8376 OR 828.302.8997",
    "lat": 36.0726,
    "lon": -79.792
  },
  {
    "name": "JUSTIN STRELEATHER 1-4",
    "owner": "",
    "address": "865 Scotts Creek Rd, Statesville, NC 28625",
    "phone": "336.902.4111 OR 704.873.9801",
    "lat": 36.0726,
    "lon": -79.792
  },
  {
    "name": "KAIRO FARMS LLC 1-4",
    "owner": "Jordan Kairo",
    "address": "263 Garwood Rd, Jonesville, NC 27028",
    "phone": "336.909.0239",
    "lat": 36.0726,
    "lon": -79.792
  },
  {
    "name": "KATHY SHREATH 4-8",
    "owner": "",
    "address": "43 Judi Smith Rd, Taylorsville, NC 28681",
    "phone": "828.632.6284 OR 828.638.3892",
    "lat": 36.0726,
    "lon": -79.792
  },
  {
    "name": "KDD FARMS 1-8",
    "owner": "Caleb L. Kniel",
    "address": "1744 Deep River Church Rd, Ramseur, NC 27316",
    "phone": "336.699.1971 or 336.467.1126 (Ritchie) / 336.736.7866 or 336.215.7444 (Caleb)",
    "lat": 36.0726,
    "lon": -79.792
  },
  {
    "name": "KELLY BENTLEY 1-2",
    "owner": "",
    "address": "468 Kerby School Ln, Taylorsville, NC 28681",
    "phone": "828.302.7975 or 828.312.0089",
    "lat": 36.0726,
    "lon": -79.792
  },
  {
    "name": "KENNETH VESTAL 1-2",
    "owner": "",
    "address": "3407 Little Mountain Road, Jonesville, NC 28642",
    "phone": "336.835.6372 or 336.835.7634 or 336.955.5630",
    "lat": 36.0726,
    "lon": -79.792
  },
  {
    "name": "KENNY CLINE 1-4",
    "owner": "",
    "address": "2289 Sulphur Springs Church Rd, Hiddenite, NC 28636",
    "phone": "828.455.3340 (Kenny) or 704.495.1290 (Teresa)",
    "lat": 36.0726,
    "lon": -79.792
  },
  {
    "name": "KISER FARMS 1-2 (D.B.A.) & 3",
    "owner": "Deborah P. Kiser",
    "address": "2063 Gaskettsbush Road, Snow Camp, NC 27349",
    "phone": "336.269.0091",
    "lat": 36.0726,
    "lon": -79.792
  },
  {
    "name": "KRISTY FOOLEMAN GUTHRIE 1-4",
    "owner": "",
    "address": "10826 NC Hwy 49 South, Liberty, NC 27298",
    "phone": "336.327.6284 or 336.622.3835 or 336.909.1431",
    "lat": 36.0726,
    "lon": -79.792
  },
  {
    "name": "LARRY BROWN #1, 3 & 4",
    "owner": "",
    "address": "2461 Mt Carmel Church Rd, Yadkinville, NC 27055",
    "phone": "336.469.1927 or 336.961.2300 or 336.961.7244",
    "lat": 36.0726,
    "lon": -79.792
  },
  {
    "name": "LARRY LONG 1-4",
    "owner": "",
    "address": "2437 Mt Carmel Church Rd, Yadkinville, NC 27055",
    "phone": "704.682.0961 OR 336.468.8210",
    "lat": 36.0726,
    "lon": -79.792
  },
  {
    "name": "LECLAIR FARM LLC 1-2",
    "owner": "Rusty LeClair",
    "address": "3329 Whitaker Rd, Boonville, NC 27011",
    "phone": "336.244.8913",
    "lat": 36.0726,
    "lon": -79.792
  },
  {
    "name": "LEONARD FARM 1-2 (D.B.A.)",
    "owner": "Justin Leonard",
    "address": "1553 Hwy 21, Hamptonville, NC 27020 / 6470 NC Highway 42 South, Ramseur, NC 27316",
    "phone": "919.548.3934",
    "lat": 36.0726,
    "lon": -79.792
  },
  {
    "name": "LUNDY'S FUNNY FARM LLC 1-4",
    "owner": "Ronald L. Lowjoy II",
    "address": "2831 Courtney Huntysville Rd, Yadkinville, NC 27055",
    "phone": "336.463.7972 (Ronald) or 336.463.7974 (Roxie)",
    "lat": 36.0726,
    "lon": -79.792
  },
  {
    "name": "Local Family Farm",
    "lat": 38.4567,
    "lon": -75.6234
  },
  {
    "name": "MANILA BOSTAN CHILDERS",
    "owner": "",
    "address": "565 Childers Loop, Hiddenite, NC 28681",
    "phone": "828.632.4979 OR 828.302.8997",
    "lat": 36.0726,
    "lon": -79.792
  },
  {
    "name": "MARSHA BRADBURN",
    "owner": "",
    "address": "9 Hooker Arms Road, Hiddenite, NC 28636",
    "phone": "828.612.7885",
    "lat": 36.0726,
    "lon": -79.792
  },
  {
    "name": "MARY MIKE",
    "owner": "",
    "address": "7725 Sulphur Springs Rd, Hiddenite, NC 28636",
    "phone": "828.632.0825",
    "lat": 36.0726,
    "lon": -79.792
  },
  {
    "name": "Mountaire Farm - Salisbury",
    "lat": 38.3607,
    "lon": -75.5994
  },
  {
    "name": "Perdue Farm #1234",
    "lat": 38.7223,
    "lon": -75.5992
  },
  {
    "name": "ROBERT ROBERTSON 1-2",
    "owner": "",
    "address": "1497 County Line Rd, Stony Point, NC 28678",
    "phone": "704.585.0739 OR 704.880.1646",
    "lat": 36.0726,
    "lon": -79.792
  },
  {
    "name": "ROBERTS FARMS 1",
    "owner": "Previously Bell Boys, LLC",
    "address": "1076 LITTLE HUNTING CREEK RD, NORTH WILKESBORO, NC 28659",
    "phone": "336.957.1073 OR 336.957.1266",
    "lat": 36.0726,
    "lon": -79.792
  },
  {
    "name": "ROBERTS FARMS 4",
    "owner": "Previously Raymond Bell",
    "address": "2468 LITTLE HUNTING CREEK RD, NORTH WILKESBORO, NC 28659",
    "phone": "336.957.1073 OR 336.957.1266",
    "lat": 36.0726,
    "lon": -79.792
  },
  {
    "name": "ROCK BOTTOM POULTRY 1-2 (D.B.A.)",
    "owner": "Jason Willis",
    "address": "168 Thiel Childers Rd, Taylorsville, NC 28681",
    "phone": "828.384.7054",
    "lat": 36.0726,
    "lon": -79.792
  },
  {
    "name": "ROCKY MILLSAPS 1-2",
    "owner": "",
    "address": "1148 Henry Rd, Taylorsville, NC 28681",
    "phone": "828.228.7120",
    "lat": 36.0726,
    "lon": -79.792
  },
  {
    "name": "ROGER MILLER 1-4",
    "owner": "",
    "address": "324 Millersprings Rd, Taylorsville, NC 28681",
    "phone": "336.244.6072 OR 828.632.5557",
    "lat": 36.0726,
    "lon": -79.792
  },
  {
    "name": "ROLDAN SPEER (SR)",
    "owner": "",
    "address": "324 Yadkin Valley Rd, Statesville, NC 28625",
    "phone": "704.876.3495",
    "lat": 36.0726,
    "lon": -79.792
  },
  {
    "name": "ROSS JOLLY",
    "owner": "",
    "address": "96 P and J Farm Road, Taylorsville, NC 28681",
    "phone": "828.638.0824 OR 828.632.4027",
    "lat": 36.0726,
    "lon": -79.792
  },
  {
    "name": "S & S CREEK FARMS 1-3",
    "owner": "Samuel Cheek",
    "address": "5401 Cheek Rd, Hamptonville, NC 27020",
    "phone": "336.468.8074 or 336.426.7700",
    "lat": 36.0726,
    "lon": -79.792
  },
  {
    "name": "SAMMY K. DEAL 1-2",
    "owner": "",
    "address": "2911 Deal Rd, Statesville, NC 28625",
    "phone": "704.585.1763",
    "lat": 36.0726,
    "lon": -79.792
  },
  {
    "name": "SAN DAN FARM #1 (D.B.A.)",
    "owner": "Danny Kama",
    "address": "285 Jenkins Loop, Taylorsville, NC 28681",
    "phone": "815.218.9261",
    "lat": 36.0726,
    "lon": -79.792
  },
  {
    "name": "SAN DAN FARM #2-3 (D.B.A.)",
    "owner": "Daniel L. Kama",
    "address": "4834 Harvest Road, McLeansville, NC 27301",
    "phone": "336.324.9650",
    "lat": 36.0726,
    "lon": -79.792
  },
  {
    "name": "SHADY CREEK FARM 1-4 (D.B.A.)",
    "owner": "Kim B. Echerd",
    "address": "285 Jenkins Loop, Taylorsville, NC 28681",
    "phone": "828.632.0091 OR 828.302.2963",
    "lat": 36.0726,
    "lon": -79.792
  },
  {
    "name": "SHADY CREEK FARM 5-8 (D.B.A.)",
    "owner": "Kim B. Echerd",
    "address": "285 Jenkins Loop, Taylorsville, NC 28681",
    "phone": "828.632.0091 OR 828.302.2963",
    "lat": 36.0726,
    "lon": -79.792
  },
  {
    "name": "SHAW'S FAMILY FARM 1-4 (D.B.A.)",
    "owner": "Donald Gerald Shaw & Carrie Taylor Shaw",
    "address": "388 Church Road, Taylorsville, NC 28681 / 1428 Shaw Road, Elon, NC 27244",
    "phone": "336.613.1831 (Donald) or 336.380.1479 (Carrie)",
    "lat": 36.0726,
    "lon": -79.792
  },
  {
    "name": "SHAWNEE BREEDER 1-12",
    "owner": "Kathleen Shaver",
    "address": "14816 E US Hwy 64, Statesville, NC 28625",
    "phone": "336.262.2981",
    "lat": 36.0726,
    "lon": -79.792
  },
  {
    "name": "SHAWNEE FARMS, LLC 1-12",
    "owner": "Larry & Martha Shawnee",
    "address": "1349 Lovill Rd, East Bend, NC 27018",
    "phone": "336.924.9... (Partial)",
    "lat": 36.0726,
    "lon": -79.792
  },
  {
    "name": "SLABAUGH FARMS 1-2 (D.B.A.)",
    "owner": "Martin Slabaugh",
    "address": "1045 Gazebo Lane, Union Grove, NC 28689",
    "phone": "336.468.4933",
    "lat": 36.0726,
    "lon": -79.792
  },
  {
    "name": "SLOAN'S MILL FARM 1-2 (D.B.A.)",
    "owner": "Howard Sloan",
    "address": "159 Sloan's Mill Road, Olin, NC 28660",
    "phone": "704.876.3329 OR 704.880.7019",
    "lat": 36.0726,
    "lon": -79.792
  },
  {
    "name": "SNOW CREEK BREEDERS 1-12",
    "owner": "Matthew Guyer",
    "address": "142 Polio Trail, State Road, NC 28676 / 1930 Joe Lane Mill Road, Elkin, NC 28621 / 1890 Joe Lane Mill Road, Elkin, NC 28621",
    "phone": "336.366.7046",
    "lat": 36.0726,
    "lon": -79.792
  },
  {
    "name": "SOWERS BROS. POULTRY, LLC (1-8)",
    "owner": "Jay or Tim Sowers",
    "address": "580 River Hill Road, Boonville, NC 27011 / 1256 Johnson Trail, Boonville, NC 27011",
    "phone": "336.972.1415 OR 336.971.0547",
    "lat": 36.0726,
    "lon": -79.792
  },
  {
    "name": "SPEAKS POULTRY, LLC 1-16",
    "owner": "Toby Lee Speaks",
    "address": "320 Burcham Road / 4147 Greenhorn Road / 210 Rocky Fold Rd, Roaring River, NC 28669 / 3125 North Lomax Rd, Yadkinville, NC 27055",
    "phone": "336.957.8416 OR 336.957.1082",
    "lat": 36.0726,
    "lon": -79.792
  },
  {
    "name": "STACY BEBBER 1-2",
    "owner": "",
    "address": "3187 Bebber Rd, Taylorsville, NC 28681",
    "phone": "828.244.7319 OR 828.632.7127",
    "lat": 36.0726,
    "lon": -79.792
  },
  {
    "name": "STACY REAVIS 1-2",
    "owner": "",
    "address": "1931 Hunting Creek Church Road, Hamptonville, NC 27020 / 3125 North Old US Hwy 601, Yadkinville, NC 27055",
    "phone": "336.244.7715 OR 336.463.7237",
    "lat": 36.0726,
    "lon": -79.792
  },
  {
    "name": "SUSAN FERGUSON 1-2 (Taylorsville)",
    "owner": "",
    "address": "616 Glass Rd, Taylorsville, NC 28681",
    "phone": "828.632.9352 OR 828.217.0776",
    "lat": 36.0726,
    "lon": -79.792
  },
  {
    "name": "SUSAN FERGUSON 1-2 (Traphill)",
    "owner": "",
    "address": "2609 Traphill Road, Traphill, NC 28685",
    "phone": "336.428.5103",
    "lat": 36.0726,
    "lon": -79.792
  },
  {
    "name": "SWAIM'S FARMS 1-8 (D.B.A.)",
    "owner": "Jason Swaim",
    "address": "5217 Brown Rd, Hamptonville, NC 27020",
    "phone": "336.428.8661 OR 336.468.4098",
    "lat": 36.0726,
    "lon": -79.792
  },
  {
    "name": "SWISHER CREEK POULTRY 1-4",
    "owner": "John Derek Hauser",
    "address": "3740 Milling Rd, Yadkinville, NC 27055",
    "phone": "336.469.1784",
    "lat": 36.0726,
    "lon": -79.792
  },
  {
    "name": "Smith Family Farm",
    "lat": 35.72,
    "lon": -81.2
  },
  {
    "name": "T & K HILL FARM 1-8 (D.B.A.)",
    "owner": "Teresa Austin Brown",
    "address": "1707 Dobbins Mill Rd, Yadkinville, NC 27055",
    "phone": "336.244.5173",
    "lat": 36.0726,
    "lon": -79.792
  },
  {
    "name": "T & L FARMS 1-8 (D.B.A.)",
    "owner": "Barbara Ann Brown",
    "address": "1701 Draco Rd, Lenoir, NC 28645",
    "phone": "828.234.5775",
    "lat": 36.0726,
    "lon": -79.792
  },
  {
    "name": "T AND K POULTRY FARM 1-8 (D.B.A.)",
    "owner": "Timothy Vestal",
    "address": "3631 Winters Rd, Jonesville, NC 28642",
    "phone": "336.526.2513",
    "lat": 36.0726,
    "lon": -79.792
  },
  {
    "name": "T BRANDS FARM (D.B.A.)",
    "owner": "Tammy Austin Brown",
    "address": "118 T Brands Farm Rd, Jonesville, NC 28642",
    "phone": "336.466.1794 OR 336.466.7785",
    "lat": 36.0726,
    "lon": -79.792
  },
  {
    "name": "T RAE'S PLACE",
    "owner": "Tanya Silver",
    "address": "1381 Center Church Road, Hiddenite, NC 28636",
    "phone": "No number listed",
    "lat": 36.0726,
    "lon": -79.792
  },
  {
    "name": "TAB & SONS, LLC #2",
    "owner": "Austin Brown",
    "address": "141 River Rd, Elkin, NC 28621",
    "phone": "336.428.6232 OR 336.417.0718",
    "lat": 36.0726,
    "lon": -79.792
  },
  {
    "name": "TARA'S PLACE",
    "owner": "Tara Shore",
    "address": "158 Center Church Road, Jonesville, NC 28642",
    "phone": "704.829.2812",
    "lat": 36.0726,
    "lon": -79.792
  },
  {
    "name": "TERRI-LYNN HICKERSON 1-2",
    "owner": "",
    "address": "1776 Three Forks Church Rd, Hiddenite, NC 28636",
    "phone": "704.612.0303 or 828.612.0203 (Jim Hill)",
    "lat": 36.0726,
    "lon": -79.792
  },
  {
    "name": "THIRD ROCK FARMS 1-2 (D.B.A.)",
    "owner": "Dwayne Shore",
    "address": "774 Ben Thompson Ln, Yadkinville, NC 27055 / 550 HICKMAN ROCK CREEK RD, BOONVILLE, NC 27011",
    "phone": "336.466.0644",
    "lat": 36.0726,
    "lon": -79.792
  },
  {
    "name": "THREE WEED CATTLE CO. 1-2",
    "owner": "Randy McNeill",
    "address": "164 McNeill Lane, Taylorsville, NC 28681",
    "phone": "336.468.9194 OR 828.638.7655",
    "lat": 36.0726,
    "lon": -79.792
  },
  {
    "name": "TIFANY CHESTNUT 1-2",
    "owner": "",
    "address": "249 Frogsap Ln, Stony Point, NC 28678",
    "phone": "704.585.9104 OR 828.612.4729",
    "lat": 36.0726,
    "lon": -79.792
  },
  {
    "name": "TIFFANY CHESTNUT 1-2",
    "owner": "",
    "address": "248 Flingum Dr, Taylorsville, NC 28681",
    "phone": "704.880.9196 OR 828.638.4739",
    "lat": 36.0726,
    "lon": -79.792
  },
  {
    "name": "TOMMY CHATHAM 1-2",
    "owner": "",
    "address": "3938 Rocky Face Church Rd, Hiddenite, NC 28636",
    "phone": "828.446.7566 OR 828.632.9428",
    "lat": 36.0726,
    "lon": -79.792
  },
  {
    "name": "TREVOR CHATHAM 1-2",
    "owner": "",
    "address": "1018 Rocky Face Church Rd, Hiddenite, NC 28636",
    "phone": "828.496.7558 OR 828.632.0087",
    "lat": 36.0726,
    "lon": -79.792
  },
  {
    "name": "TREVOR CHATHAM 1-4",
    "owner": "",
    "address": "4599 Rocky Face Church Rd, Hiddenite, NC 28636",
    "phone": "828.496.7558 OR 828.632.0087",
    "lat": 36.0726,
    "lon": -79.792
  },
  {
    "name": "TROUBLE CREEK FARM 1-4 (D.B.A.)",
    "owner": "Wesley Bowen",
    "address": "1399 Irish Ln, Elkin, NC 28621",
    "phone": "336.413.8621",
    "lat": 36.0726,
    "lon": -79.792
  },
  {
    "name": "TROY CLICK 1-4",
    "owner": "",
    "address": "129 Willie Rd, Statesville, NC 28625",
    "phone": "704.902.0999 OR 704.616.3281",
    "lat": 36.0726,
    "lon": -79.792
  },
  {
    "name": "TWISTED SWINE FARM, LLC 1-4 (D.B.A.)",
    "owner": "Selina Gonzalez",
    "address": "2332 Courtney-Huntysville Rd, Yadkinville, NC 27055",
    "phone": "336.463.4289 OR 336.618.5201",
    "lat": 36.0726,
    "lon": -79.792
  },
  {
    "name": "Tyson Farm - Delmarva",
    "lat": 38.5855,
    "lon": -75.7641
  },
  {
    "name": "VAN HEMRIC FARM 1-8",
    "owner": "",
    "address": "1931 Mountain Grove Rd, Hamptonville, NC 27020 / 973 Victory Ln, Ronda, NC 28670",
    "phone": "336.468.2970 OR 336.468.7611",
    "lat": 36.0726,
    "lon": -79.792
  },
  {
    "name": "WARD FARMS OF WESTFI... LLC 1-4",
    "owner": "John Ward",
    "address": "3337 Cook Stewart Road, Pinnacle, NC 27043",
    "phone": "336.366.7902 (John) or 336.366.4258 (Gregg)",
    "lat": 36.0726,
    "lon": -79.792
  },
  {
    "name": "WAY BACK POULTRY FARM 1-4",
    "owner": "Shannon Lee Matheson",
    "address": "401 Old Vashti Road, Taylorsville, NC 28681",
    "phone": "828.612.1746 (Shannon) or 828.612.5706 (Crystal)",
    "lat": 36.0726,
    "lon": -79.792
  },
  {
    "name": "WAYNE CLEARY 1-2",
    "owner": "",
    "address": "282 Shawns Rd, Yadkinville, NC 27055",
    "phone": "336.244.5504 OR 336.463.2528 OR 336.463.5645",
    "lat": 36.0726,
    "lon": -79.792
  },
  {
    "name": "WESTWARD FARMS #1-5 (D.B.A.)",
    "owner": "Tracy Jenkins",
    "address": "2909 Island Ford Rd / 242 Westward Road, Stony Point, NC 28678",
    "phone": "704.902.1776",
    "lat": 36.0726,
    "lon": -79.792
  },
  {
    "name": "WHITE & WHITE FARMS 1-2",
    "owner": "Thomas Quentin Fox White",
    "address": "7741 Silk Hope Rd, Liberty, NC 27298",
    "phone": "336.382.3847",
    "lat": 36.0726,
    "lon": -79.792
  },
  {
    "name": "WILLIAMS FARM OF YADKINVILLE, INC. 1-2",
    "owner": "Debra Williams",
    "address": "2820-A Union Cross Church Rd, Yadkinville, NC 27055",
    "phone": "336.469.5416 or 336.961.6322",
    "lat": 36.0726,
    "lon": -79.792
  }
]